{
  "TMB": {
    "long_name": "Thames Barrier",
    "latitude": 51.49694,
    "longitude": 0.036614,
    "height": "5m"
  },
  "BTT": {
    "long_name": "BT Tower",
    "latitude": 51.5215,
    "longitude": -0.1389,
    "height": "185m"
  },
  "NPL": {
    "long_name": "National Physical Laboratory",
    "latitude": 51.4241,
    "longitude": -0.3487,
    "height": "NA"
  },
  "UOW": {
    "long_name": "University of Westminster, Harrow Campus",
    "latitude": 51.577558,
    "longitude": -0.324358,
    "height": "40m"
  },
  "STJ": {
    "long_name": "St Jude's Church",
    "latitude": 51.580154,
    "longitude": -0.189911,
    "height": "20m"
  },
  "HFT": {
    "long_name": "Highfield Tower",
    "latitude": 51.608031,
    "longitude": 0.174544,
    "height": "45m"
  },
  "SMA": {
    "long_name": "St Mary's Church",
    "latitude": 51.504423,
    "longitude": -0.305762,
    "height": "36m"
  },
  "RHO": {
    "long_name": "Royal Holloway",
    "latitude": 51.427582,
    "longitude": -0.56278
  },
  "WGF": {
    "long_name": "Woodgreen Farm",
    "latitude": 51.700313,
    "longitude": -0.083932,
    "height": "6m"
  }
}
